[
  {
    "company_id": "KEIHAN",
    "company_name": "京阪電鉄",
    "lines": [
      {
		"id": "KEIHAN_OTO",
        "name": "鴨東線",
        "sequence": [
		  "STN_KEIHAN_SANJO",
		  "STN_KEIHAN_JINGU_MARUTAMACHI",
		  "STN_KEIHAN_DEMACHIYANAGI"
		]
	},
	{
		"id": "KEIHAN_HONSEN",
        "name": "京阪本線",
        "sequence": [
		  "STN_KEIHAN_YODOYABASHI",
		  "STN_KEIHAN_KITAHAMA",
		  "STN_KEIHAN_TEMMABASHI",
		  "STN_KEIHAN_KYOBASHI",
		  "STN_KEIHAN_NOE",
		  "STN_KEIHAN_SEKIME",
		  "STN_KEIHAN_MORISHOJI",
		  "STN_KEIHAN_SENBAYASHI",
		  "STN_KEIHAN_TAKII",
		  "STN_KEIHAN_DOI",
		  "STN_KEIHAN_MORIGUCHI_SHI",
		  "STN_KEIHAN_NISHISANSO",
		  "STN_KEIHAN_KADOMASHI",
		  "STN_KEIHAN_FURUKUWA_BASHI",
		  "STN_KEIHAN_OWADA",
		  "STN_KEIHAN_KAYASHIMA",
		  "STN_KEIHAN_NEYAGAWASHI",
		  "STN_KEIHAN_KORIEN",
		  "STN_KEIHAN_KOZENJI",
		  "STN_KEIHAN_HIRAKATA_KOEN",
		  "STN_KEIHAN_HIRAKATASHI",
		  "STN_KEIHAN_GOTENYAMA",
		  "STN_KEIHAN_MAKINO",
		  "STN_KEIHAN_KUZUHA",
		  "STN_KEIHAN_HASHIMOTO",
		  "STN_KEIHAN_IWASHIMIZU_HACHIMANGU",
		  "STN_KEIHAN_YODO",
		  "STN_KEIHAN_CHUSHUJIMA",
		  "STN_KEIHAN_FUSHIMI_MOMOYAMA",
		  "STN_KEIHAN_TAMBABASHI",
		  "STN_KEIHAN_SUMIZOME",
		  "STN_KEIHAN_FUJIMORI",
		  "STN_KEIHAN_RYUKOKUDAI_MAE_FUKAKUSA",
		  "STN_KEIHAN_FUSHIMI_INARI",
		  "STN_KEIHAN_TOBA_KAIDO",
		  "STN_KEIHAN_TOFUKUJI",
		  "STN_KEIHAN_SHICHIJO",
		  "STN_KEIHAN_KIYOMIZU_GOJO",
		  "STN_KEIHAN_GION_SHIJO",
		  "STN_KEIHAN_SANJO",
		  "STN_KEIHAN_JINGU_MARUTAMACHI",
		  "STN_KEIHAN_DEMACHIYANAGI"
		]
	}
	],
	"stations": [
	{ "id": "STN_KEIHAN_YODOYABASHI", "name": "淀屋橋", "lat": "34.692267", "lng": "135.502721" },
	{ "id": "STN_KEIHAN_KITAHAMA", "name": "北浜", "lat": "34.691505", "lng": "135.50759" },
	{ "id": "STN_KEIHAN_TEMMABASHI", "name": "天満橋", "lat": "34.690395", "lng": "135.516295" },
	{ "id": "STN_KEIHAN_KYOBASHI", "name": "京橋", "lat": "34.69702", "lng": "135.532415" },
	{ "id": "STN_KEIHAN_NOE", "name": "野江", "lat": "34.7073", "lng": "135.543335" },
	{ "id": "STN_KEIHAN_SEKIME", "name": "関目", "lat": "34.712625", "lng": "135.546985" },
	{ "id": "STN_KEIHAN_MORISHOJI", "name": "森小路", "lat": "34.719455", "lng": "135.55168" },
	{ "id": "STN_KEIHAN_SENBAYASHI", "name": "千林", "lat": "34.724055", "lng": "135.55482" },
	{ "id": "STN_KEIHAN_TAKII", "name": "滝井", "lat": "34.7279", "lng": "135.557445" },
	{ "id": "STN_KEIHAN_DOI", "name": "土居", "lat": "34.730635", "lng": "135.559785" },
	{ "id": "STN_KEIHAN_MORIGUCHI_SHI", "name": "守口市", "lat": "34.735258", "lng": "135.565159" },
	{ "id": "STN_KEIHAN_NISHISANSO", "name": "西三荘", "lat": "34.73734", "lng": "135.57589" },
	{ "id": "STN_KEIHAN_KADOMASHI", "name": "門真市", "lat": "34.7381", "lng": "135.583" },
	{ "id": "STN_KEIHAN_FURUKUWA_BASHI", "name": "古川橋", "lat": "34.73992", "lng": "135.591395" },
	{ "id": "STN_KEIHAN_OWADA", "name": "大和田", "lat": "34.74293", "lng": "135.602596" },
	{ "id": "STN_KEIHAN_KAYASHIMA", "name": "萱島", "lat": "34.747501", "lng": "135.611219" },
	{ "id": "STN_KEIHAN_NEYAGAWASHI", "name": "寝屋川市", "lat": "34.76398", "lng": "135.620736" },
	{ "id": "STN_KEIHAN_KORIEN", "name": "香里園", "lat": "34.78456", "lng": "135.63094" },
	{ "id": "STN_KEIHAN_KOZENJI", "name": "光善寺", "lat": "34.79776", "lng": "135.63017" },
	{ "id": "STN_KEIHAN_HIRAKATA_KOEN", "name": "枚方公園", "lat": "34.811625", "lng": "135.639495" },
	{ "id": "STN_KEIHAN_HIRAKATASHI", "name": "枚方市", "lat": "34.81625728", "lng": "135.64873951" },
	{ "id": "STN_KEIHAN_GOTENYAMA", "name": "御殿山", "lat": "34.829165", "lng": "135.653995" },
	{ "id": "STN_KEIHAN_MAKINO", "name": "牧野", "lat": "34.843832", "lng": "135.665547" },
	{ "id": "STN_KEIHAN_KUZUHA", "name": "樟葉", "lat": "34.861987", "lng": "135.675416" },
	{ "id": "STN_KEIHAN_HASHIMOTO", "name": "橋本", "lat": "34.88198", "lng": "135.684222" },
	{ "id": "STN_KEIHAN_IWASHIMIZU_HACHIMANGU", "name": "石清水八幡宮", "lat": "34.884667", "lng": "135.699876" },
	{ "id": "STN_KEIHAN_YODO", "name": "淀", "lat": "34.906515", "lng": "135.720996" },
	{ "id": "STN_KEIHAN_CHUSHUJIMA", "name": "中書島", "lat": "34.926803", "lng": "135.760314" },
	{ "id": "STN_KEIHAN_FUSHIMI_MOMOYAMA", "name": "伏見桃山", "lat": "34.932505", "lng": "135.76436" },
	{ "id": "STN_KEIHAN_TAMBABASHI", "name": "丹波橋", "lat": "34.93892", "lng": "135.76542" },
	{ "id": "STN_KEIHAN_SUMIZOME", "name": "墨染", "lat": "34.94817", "lng": "135.769105" },
	{ "id": "STN_KEIHAN_FUJIMORI", "name": "藤森", "lat": "34.95688", "lng": "135.77022" },
	{ "id": "STN_KEIHAN_RYUKOKUDAI_MAE_FUKAKUSA", "name": "龍谷大前深草", "lat": "34.964015", "lng": "135.77014" },
	{ "id": "STN_KEIHAN_FUSHIMI_INARI", "name": "伏見稲荷", "lat": "34.96913", "lng": "135.769305" },
	{ "id": "STN_KEIHAN_TOBA_KAIDO", "name": "鳥羽街道", "lat": "34.97382", "lng": "135.770013" },
	{ "id": "STN_KEIHAN_TOFUKUJI", "name": "東福寺", "lat": "34.98143", "lng": "135.77001" },
	{ "id": "STN_KEIHAN_SHICHIJO", "name": "七条", "lat": "34.9901", "lng": "135.767635" },
	{ "id": "STN_KEIHAN_KIYOMIZU_GOJO", "name": "清水五条", "lat": "34.996565", "lng": "135.7687" },
	{ "id": "STN_KEIHAN_GION_SHIJO", "name": "祇園四条", "lat": "35.003347", "lng": "135.771976" },
	{ "id": "STN_KEIHAN_SANJO", "name": "三条", "lat": "35.00879", "lng": "135.772337" },
	{ "id": "STN_KEIHAN_JINGU_MARUTAMACHI", "name": "神宮丸太町", "lat": "35.01836", "lng": "135.772243" },
	{ "id": "STN_KEIHAN_DEMACHIYANAGI", "name": "出町柳", "lat": "35.029914", "lng": "135.772542" },
	{ "id": "STN_KEIHAN_SANJO", "name": "三条", "lat": "35.00879", "lng": "135.772337" },
	{ "id": "STN_KEIHAN_JINGU_MARUTAMACHI", "name": "神宮丸太町", "lat": "35.01836", "lng": "135.772243" },
	{ "id": "STN_KEIHAN_DEMACHIYANAGI", "name": "出町柳", "lat": "35.029914", "lng": "135.772542" }
]
}
]