[
  {
    "categories": "",
    "company_id": "TOKYO_MONO",
    "company_name": "東京モノレール",
    "lines": [
      {
        "id": "TOKYO_MONO_LINE",
        "name": "羽田空港線",
        "sequence": [
          "STN_TOKYO_MONO_MONORAIL_HAMAMATSUCHO",
          "STN_TOKYO_MONO_TENNOZU_ISLE",
          "STN_TOKYO_MONO_OIKIBIJO_MAE",
          "STN_TOKYO_MONO_RYUTSU_CENTER",
          "STN_TOKYO_MONO_SHOWAJIMA",
          "STN_TOKYO_MONO_SEIBIJO",
          "STN_TOKYO_MONO_TENKUBASHI",
          "STN_TOKYO_MONO_HANEDA_AIRPORT_TERMINAL_3",
          "STN_TOKYO_MONO_SHIN_SEIBIJO",
          "STN_TOKYO_MONO_HANEDA_AIRPORT_TERMINAL_1",
          "STN_TOKYO_MONO_HANEDA_AIRPORT_TERMINAL_2"
        ]
      }
    ],
    "stations": [
      {
        "id": "STN_TOKYO_MONO_MONORAIL_HAMAMATSUCHO",
        "lat": "35.65546879",
        "lng": "139.75675497",
        "name": "モノレール浜松町"
      },
      {
        "id": "STN_TOKYO_MONO_TENNOZU_ISLE",
        "lat": "35.62276334",
        "lng": "139.75076933",
        "name": "天王洲アイル"
      },
      {
        "id": "STN_TOKYO_MONO_OIKIBIJO_MAE",
        "lat": "35.5949617",
        "lng": "139.74703564",
        "name": "大井競馬場前"
      },
      {
        "id": "STN_TOKYO_MONO_RYUTSU_CENTER",
        "lat": "35.581445",
        "lng": "139.749185",
        "name": "流通センター"
      },
      {
        "id": "STN_TOKYO_MONO_SHOWAJIMA",
        "lat": "35.570621",
        "lng": "139.749912",
        "name": "昭和島"
      },
      {
        "id": "STN_TOKYO_MONO_SEIBIJO",
        "lat": "35.5551",
        "lng": "139.75336",
        "name": "整備場"
      },
      {
        "id": "STN_TOKYO_MONO_TENKUBASHI",
        "lat": "35.548355",
        "lng": "139.7546",
        "name": "天空橋"
      },
      {
        "id": "STN_TOKYO_MONO_HANEDA_AIRPORT_TERMINAL_3",
        "lat": "35.543923",
        "lng": "139.76861",
        "name": "羽田空港第3ターミナル"
      },
      {
        "id": "STN_TOKYO_MONO_SHIN_SEIBIJO",
        "lat": "35.542816",
        "lng": "139.786827",
        "name": "新整備場"
      },
      {
        "id": "STN_TOKYO_MONO_HANEDA_AIRPORT_TERMINAL_1",
        "lat": "35.549089",
        "lng": "139.78465",
        "name": "羽田空港第1ターミナル"
      },
      {
        "id": "STN_TOKYO_MONO_HANEDA_AIRPORT_TERMINAL_2",
        "lat": "35.550795",
        "lng": "139.7882",
        "name": "羽田空港第2ターミナル"
      }
    ]
  }
]